[
  {
    "id": 145,
    "name": "Occalong Falls",
    "imageUrl": "https://raw.githubusercontent.com/jezrelnye/Ukentilakay/master/image/1.jpg",
    "price": 75,
    "priceCurrency": "Pesos",
    "lat": 16.7995,
    "lng": 120.3574
  },
  {
    "id": 148,
    "name": "Kina Dok's Garden and Resto",
    "imageUrl": "https://raw.githubusercontent.com/jezrelnye/Ukentilakay/master/2.JPG",
    "price": 0,
    "priceCurrency": "Pesos",
    "lat": 16.6639,
    "lng": 120.3349
  },
  {
    "id": 201,
    "name": "Kahuna Beach Resort",
    "imageUrl": "https://raw.githubusercontent.com/jezrelnye/Ukentilakay/master/image/3.jpg",
    "price": 150,
    "priceCurrency": "Pesos",
    "lat": 16.6583,
    "lng": 120.3217
  },
  {
    "id": 205,
    "name": "Baywalk",
    "imageUrl": "https://raw.githubusercontent.com/jezrelnye/Ukentilakay/master/image/bayw.jpg",
    "price": 20,
    "priceCurrency": "Pesos",
    "lat": 16.617379,
    "lng": 120.290809
  },
  {
    "id": 210,
    "name": "Immuki Island",
    "imageUrl": "https://raw.githubusercontent.com/jezrelnye/Ukentilakay/master/image/imm.jpg",
    "price": 120,
    "priceCurrency": "Pesos",
    "lat": 16.8022,
    "lng": 120.4012
  },
  {
    "id": 211,
    "name": "Bohemian Balay Mi",
    "imageUrl": "https://raw.githubusercontent.com/jezrelnye/Ukentilakay/master/image/was.png",
    "price": 0,
    "priceCurrency": "Pesos",
    "lat": 16.6781,
    "lng": 120.3940
  }
]
